{
  "cities": ["Vilnius", "Kaunas", "Pajūris", "Šiauliai", "Kiti miestai"],
  "stores": [
    {"id": 1, "title": "Can Can PC Ozas", "city": "Vilnius", "address": "Ozo g. 18", "lat": 54.714185, "lng": 25.273247},
{"id": 2, "title": "Can Can Viršuliškių Maxima", "city": "Vilnius", "address": "Viršuliškių g. 30", "lat": 54.709511, "lng": 25.222131},
{"id": 3, "title": "Casa La Familia", "city": "Vilnius", "address": "Rūdninkų g. 18", "lat": 54.676048, "lng": 25.284487},
{"id": 4, "title": "Charlie Kids VCUP", "city": "Vilnius", "address": "Upės g. 9", "lat": 54.693861, "lng": 25.276177},
{"id": 5, "title": "Charlie Pizza PC Ozas", "city": "Vilnius", "address": "Ozo g. 18", "lat": 54.714185, "lng": 25.273247},
{"id": 6, "title": "Dodo Pizza", "city": "Vilnius", "address": "Antakalnio g. 41", "lat": 54.704601, "lng": 25.310795},
{"id": 7, "title": "Drama Burger", "city": "Vilnius", "address": "Ogmios miestas, Verkių g. 29", "lat": 54.713221, "lng": 25.298671},
{"id": 8, "title": "Fortas", "city": "Vilnius", "address": "Ulonų g. 2", "lat": 54.708259, "lng": 25.29036},
{"id": 9, "title": "Freedom Terrace", "city": "Vilnius", "address": "PC Akropolis, Ozo g. 25", "lat": 54.71031, "lng": 25.262675},
{"id": 10, "title": "Fresh Friendly Family", "city": "Vilnius", "address": "Kęstučio g. 38/ Bebrų g. 7", "lat": 54.696235, "lng": 25.249768},
{"id": 11, "title": "Guacamole", "city": "Vilnius", "address": "PC Panorama Saltoniškių g. 9", "lat": 54.699853, "lng": 25.257877},
{"id": 12, "title": "Gusto blyninė Senamiestis", "city": "Vilnius", "address": "Aušros vartų g. 6, Vilnius", "lat": 54.675934, "lng": 25.288899},
{"id": 13, "title": "Gusto blyninė Šeškinė", "city": "Vilnius", "address": "Laisvės pr. 77B", "lat": 54.722824, "lng": 25.23571},
{"id": 14, "title": "HBH Vilnius", "city": "Vilnius", "address": "Žirgų g. 2, Raudondvario kaimas, Vilniaus r.", "lat": 54.813022, "lng": 25.237348},
{"id": 15, "title": "IKEA restoranas", "city": "Vilnius", "address": "Vikingų g. 1", "lat": 54.650999, "lng": 25.280124},
{"id": 16, "title": "Jurgis ir drakonas PC Akropolis", "city": "Vilnius", "address": "Ozo g. 25", "lat": 54.71031, "lng": 25.262675},
{"id": 17, "title": "Jurgis ir drakonas Ogmios miestas", "city": "Vilnius", "address": "Šeimos aikštė 6, Verkių g. 29", "lat": 54.71314, "lng": 25.296699},
{"id": 18, "title": "Katpėdėlė Viršuliškės", "city": "Vilnius", "address": "Viršuliškių g. 40", "lat": 54.708043, "lng": 25.227629},
{"id": 19, "title": "Katpėdėlė Žirmūnai", "city": "Vilnius", "address": "Lukšio g. 34", "lat": 54.709533, "lng": 25.299937},
{"id": 20, "title": "Kikilio lizdas PC Rimi Jeruzalė", "city": "Vilnius", "address": "Jeruzalės g. 4", "lat": 54.740131, "lng": 25.274607},
{"id": 21, "title": "Kikilio lizdas PC IKI Minskas", "city": "Vilnius", "address": "Žirmūnų g. 2", "lat": 54.697377, "lng": 25.298916},
{"id": 22, "title": "Mama Grill", "city": "Vilnius", "address": "Žirgų g. 2A, Raudondvario k., Riešės sen., Vilniaus r.", "lat": 54.813022, "lng": 25.237348},
{"id": 23, "title": "Pramogų imperija PC Big", "city": "Vilnius", "address": "Ukmergės g. 369", "lat": 54.740384, "lng": 25.228083},
{"id": 24, "title": "Sugamour", "city": "Vilnius", "address": "Vokiečių g. 11", "lat": 54.679644, "lng": 25.284034},
{"id": 25, "title": "Vaflių namai", "city": "Vilnius", "address": "Ogmios miestas, Verkių g. 29", "lat": 54.713221, "lng": 25.298671},
{"id": 26, "title": "Vapiano Vilnius", "city": "Vilnius", "address": "PC Europa, Konstitucijos pr. 7A", "lat": 54.696214, "lng": 25.276796},
{"id": 27, "title": "Veranda", "city": "Vilnius", "address": "Kęstučio g. 39", "lat": 54.69388, "lng": 25.25106},
{"id": 28, "title": "Bajorkiemis", "city": "Kaunas", "address": "Kęstučio g. 86", "lat": 54.896235, "lng": 23.904294},
{"id": 29, "title": "Bernelių užeiga", "city": "Kaunas", "address": "Baltų pr. 81", "lat": 54.926893, "lng": 23.879051},
{"id": 30, "title": "Briedžių medžioklė", "city": "Kaunas", "address": "Vilniaus g. 54, Karmėlava", "lat": 54.969902, "lng": 24.064606},
{"id": 31, "title": "Can Can PC Maxima", "city": "Kaunas", "address": "Savanorių pr. 255", "lat": 54.914818, "lng": 23.938279},
{"id": 32, "title": "Grill London", "city": "Kaunas", "address": "PC Molas K.Baršausko g. 66A", "lat": 54.900455, "lng": 23.968069},
{"id": 33, "title": "Jurgis ir Drakonas", "city": "Kaunas", "address": "Kurpių g. 26", "lat": 54.895814, "lng": 23.895124},
{"id": 34, "title": "Bokštas", "city": "Kaunas", "address": "Kęstučio g. 86 / I. Kanto g. 18", "lat": 54.896415, "lng": 23.904293},
{"id": 35, "title": "Svarstyklės", "city": "Kaunas", "address": "T. Masiulio g. 18e", "lat": 54.884249, "lng": 24.007097},
{"id": 36, "title": "Talutti", "city": "Kaunas", "address": "Laisvės al. 74", "lat": 54.897634, "lng": 23.911502},
{"id": 37, "title": "Can Can", "city": "Pajūris", "address": "PC Akropolis, Taikos pr. 61, Klaipėda", "lat": 55.692964, "lng": 21.15605},
{"id": 38, "title": "HBH Palanga", "city": "Pajūris", "address": "Liepų g. 23, Žibininkų km.", "lat": 55.959623, "lng": 21.148095},
{"id": 39, "title": "Hesburger Klaipėda Jakai", "city": "Pajūris", "address": "Vilniaus pl. 9, Jakų km., Klaipėdos r.", "lat": 55.69586, "lng": 21.18968},
{"id": 40, "title": "Hesburger Klaipėda Minijos", "city": "Pajūris", "address": "Minijos g. 90, Klaipėda", "lat": 55.688315, "lng": 21.14475},
{"id": 41, "title": "Hesburger Klaipėda Sudmantai", "city": "Pajūris", "address": "Sendvario g. 4, Sudmantai, Klaipėdos r.", "lat": 55.751739, "lng": 21.225579},
{"id": 42, "title": "Kukudra", "city": "Pajūris", "address": "Klaipėdos g. 16, Kretingalė", "lat": 55.884605, "lng": 21.230318},
{"id": 43, "title": "Nendrinė pastogė", "city": "Pajūris", "address": "Miško tak. 24, Palanga", "lat": 56.024012, "lng": 21.107851},
{"id": 44, "title": "Olando kepurė", "city": "Pajūris", "address": "Krikštų 5, Karklė", "lat": 55.808181, "lng": 21.075545},
{"id": 45, "title": "Pramogų Namai - Pūkas ir Molė", "city": "Pajūris", "address": "H. Manto g. 5, Klaipėda", "lat": 55.712844, "lng": 21.13072},
{"id": 46, "title": "Račkauskų sodyba svetainė Agluona", "city": "Pajūris", "address": "Kantvainių km., Agluonėnų sen., Klaipėdos r.", "lat": 55.585253, "lng": 21.38153},
{"id": 47, "title": "Radailių dvaras", "city": "Pajūris", "address": "Pušyno g. 9, Radailiai, Klaipėdos raj.", "lat": 55.786371, "lng": 21.219648},
{"id": 48, "title": "Piccolini", "city": "Pajūris", "address": "Sukilėlių g. 6, Klaipėda", "lat": 55.707431, "lng": 21.131989},
{"id": 49, "title": "Siner Burger", "city": "Pajūris", "address": "Turgaus g. 17, Klaipeda", "lat": 55.708934, "lng": 21.134801},
{"id": 50, "title": "Žaliasis slėnis", "city": "Pajūris", "address": "Jungtinė g. 2, Aukštkiemių km., Klaipėdos r.", "lat": 55.766294, "lng": 21.161056},
{"id": 51, "title": "Vienkiemis", "city": "Pajūris", "address": "Vienkiemio g. 3, Padvarių k., Kretingos sen., Kretingos r.", "lat": 55.913032, "lng": 21.272699},
{"id": 52, "title": "Can Can PC Akropolis", "city": "Šiauliai", "address": "Aido g. 8", "lat": 55.908, "lng": 23.260992},
{"id": 53, "title": "Hesburger PC Tilžė", "city": "Šiauliai", "address": "Tilžės g. 225", "lat": 55.943161, "lng": 23.327541},
{"id": 54, "title": "Katpedėlė PC Akropolis", "city": "Šiauliai", "address": "Aido g. 8", "lat": 55.908, "lng": 23.260992},
{"id": 55, "title": "La Crepe PC Saulės Miestas", "city": "Šiauliai", "address": "Tilžės g. 109", "lat": 55.927894, "lng": 23.308412},
{"id": 56, "title": "Viešbutis-kavinė Geltona", "city": "Šiauliai", "address": "Beržynės k., Šiaulių r.", "lat": 55.888104, "lng": 23.225011},
{"id": 57, "title": "Can Can Mažeikiai", "city": "Kiti miestai", "address": "Žemaitijos g. 20b-5, Mažeikiai", "lat": 56.304754, "lng": 22.331983},
{"id": 58, "title": "Gurucafe", "city": "Kiti miestai", "address": "Kalnų g. 15, Jonava", "lat": 55.075689, "lng": 24.276679},
{"id": 59, "title": "Kavos dėžutė", "city": "Kiti miestai", "address": "Laisves aikštė 15-18, Panevėžys", "lat": 55.727299, "lng": 24.362767},
{"id": 60, "title": "La crepe", "city": "Kiti miestai", "address": "Žemaitijos g. 38, Mažeikiai", "lat": 56.302696, "lng": 22.340537},
{"id": 61, "title": "Ledo Arena", "city": "Kiti miestai", "address": "Senkelio g. 3A, Mažeikiai", "lat": 56.303492, "lng": 22.356065},
{"id": 62, "title": "Pilialaukis ir Linksmalaukis", "city": "Kiti miestai", "address": "Galvės g. 120. Trakų r.", "lat": 54.651982, "lng": 24.925099},
{"id": 63, "title": "Viliošiai", "city": "Kiti miestai", "address": "Viliošių km. 14, Akmenės raj.", "lat": 56.219413, "lng": 22.644003}
  ]
}
